City_ID,City,Country,Lat,Lng,Max Temp,Humidity,Cloudiness,Wind Speed,Current Description
0,Moa,CU,20.6569,-74.9403,82.87,78,82,12.73,broken clouds
1,Puerto Ayora,EC,-0.7393,-90.3518,78.76,85,38,5.99,scattered clouds
2,Vanimo,PG,-2.6741,141.3028,81.05,77,54,4.41,broken clouds
3,Bredasdorp,ZA,-34.5322,20.0403,55.13,91,100,9.31,light rain
4,Uige,AO,-7.6087,15.0613,65.34,75,99,2.64,overcast clouds
5,Fairbanks,US,64.8378,-147.7164,61.09,66,75,9.22,broken clouds
6,East London,ZA,-33.0153,27.9116,66.42,50,29,11.68,scattered clouds
7,Meulaboh,ID,4.1363,96.1285,76.98,85,100,5.3,overcast clouds
8,Bowen,AU,-20.0167,148.2333,62.65,61,0,5.17,clear sky
9,Hanko,FI,59.8333,22.95,66.06,95,100,6.87,moderate rain
10,Albany,US,42.6001,-73.9662,88.21,56,46,4.65,scattered clouds
11,New Norfolk,AU,-42.7826,147.0587,50.92,85,100,2.35,overcast clouds
12,Yellowknife,CA,62.456,-114.3525,70.32,46,20,13.8,few clouds
13,Hermanus,ZA,-34.4187,19.2345,53.8,83,100,12.97,light rain
14,San Quintin,MX,30.4833,-115.95,73.31,65,93,15.97,overcast clouds
15,Leningradskiy,RU,69.3833,178.4167,37.99,83,89,9.06,overcast clouds
16,Kenai,US,60.5544,-151.2583,61.03,66,0,17.27,clear sky
17,Sorong,ID,-0.8833,131.25,77.02,87,88,9.95,overcast clouds
18,Saint-Philippe,RE,-21.3585,55.7679,64.22,84,47,14.32,light rain
19,Butaritari,KI,3.0707,172.7902,81.37,75,47,9.62,scattered clouds
20,Nishihara,JP,26.1842,127.7558,85.68,86,75,11.5,broken clouds
21,Sitka,US,57.0531,-135.33,55.29,82,100,9.22,light rain
22,Havre-Saint-Pierre,CA,50.2334,-63.5986,64.76,88,20,5.75,few clouds
23,Hefei,CN,31.8639,117.2808,78.82,89,40,15.66,scattered clouds
24,Beidao,CN,34.5686,105.8933,64.35,83,0,3.11,clear sky
25,Guantanamo,CU,20.1444,-75.2092,83.77,74,76,3.36,broken clouds
26,Rikitea,PF,-23.1203,-134.9692,72.09,75,100,9.84,overcast clouds
27,Pangnirtung,CA,66.1451,-65.7125,48.2,87,20,6.91,few clouds
28,Punta Arenas,CL,-53.15,-70.9167,37.51,75,0,17.27,clear sky
29,Kamina,CD,-8.7386,24.9906,63.97,47,31,3.42,scattered clouds
30,Teya,RU,60.3778,92.6267,56.98,97,94,3.74,overcast clouds
31,Ostrovnoy,RU,68.0531,39.5131,51.78,89,98,16.82,overcast clouds
32,Gushikawa,JP,26.3544,127.8686,85.62,84,75,9.22,broken clouds
33,Hilo,US,19.7297,-155.09,85.28,79,100,8.05,overcast clouds
34,Kosa,RU,59.9445,54.9977,52.92,73,72,3.76,broken clouds
35,Nara,JP,34.6851,135.8049,78.12,59,72,4.92,broken clouds
36,Busselton,AU,-33.65,115.3333,59.47,80,73,20.87,light rain
37,Ribeira Grande,PT,38.5167,-28.7,73.65,89,80,5.73,broken clouds
38,Pitimbu,BR,-7.4706,-34.8086,75.79,80,87,12.71,overcast clouds
39,Hithadhoo,MV,-0.6,73.0833,81.84,72,100,7.85,overcast clouds
40,Okhotsk,RU,59.3833,143.3,63.21,77,92,3.98,overcast clouds
41,Tuktoyaktuk,CA,69.4541,-133.0374,73.4,46,75,8.05,broken clouds
42,Faanui,PF,-16.4833,-151.75,78.19,73,20,9.51,few clouds
43,Ossora,RU,59.2353,163.0719,61.07,62,5,6.15,clear sky
44,Kapaa,US,22.0752,-159.319,84.52,67,0,12.66,clear sky
45,Chokurdakh,RU,70.6333,147.9167,52.86,49,99,13.67,overcast clouds
46,Georgetown,MY,5.4112,100.3354,78.89,97,20,3.44,few clouds
47,Nadym,RU,65.5333,72.5167,45.81,97,100,7.09,light rain
48,Kulachi,PK,31.9286,70.4592,88.57,61,57,4.32,broken clouds
49,Kapoeta,SS,4.7717,33.5903,82.18,39,91,14.45,overcast clouds
50,Mataura,NZ,-46.1927,168.8643,36.48,80,13,2.93,few clouds
51,Hobart,AU,-42.8794,147.3294,51.26,87,75,5.75,light rain
52,Verkhnyaya Inta,RU,65.9811,60.3094,40.51,91,78,8.34,broken clouds
53,Lebu,CL,-37.6167,-73.65,53.28,97,100,12.17,overcast clouds
54,Nueva Helvecia,UY,-34.3,-57.2333,56.59,92,3,7.63,clear sky
55,Surt,LY,31.2089,16.5887,78.53,61,0,6.96,clear sky
56,Haines Junction,CA,60.7522,-137.5108,58.95,44,86,5.75,overcast clouds
57,Ahipara,NZ,-35.1667,173.1667,57.09,70,100,12.03,overcast clouds
58,Amapa,BR,1.0,-52.0,71.87,96,100,1.52,overcast clouds
59,Savalou,BJ,7.9281,1.9756,72.41,95,100,7.7,overcast clouds
60,Onguday,RU,50.75,86.15,51.03,89,61,3.98,broken clouds
61,Iqaluit,CA,63.7506,-68.5145,47.93,87,75,4.61,broken clouds
62,Palmerston,AU,-12.486,130.9833,61.93,97,21,9.22,mist
63,Lasa,IT,46.6166,10.7002,72.48,81,90,3.36,overcast clouds
64,Hofn,IS,64.2539,-15.2082,51.94,91,58,6.38,broken clouds
65,Mahebourg,MU,-20.4081,57.7,66.49,100,75,10.36,broken clouds
66,Saskylakh,RU,71.9167,114.0833,53.08,59,92,7.65,overcast clouds
67,Pevek,RU,69.7008,170.3133,32.92,89,98,5.7,overcast clouds
68,Bethel,US,41.3712,-73.414,87.91,60,23,6.69,few clouds
69,Palana,RU,59.1167,159.9667,57.47,55,20,6.87,few clouds
70,Lompoc,US,34.6391,-120.4579,86.02,72,0,21.99,clear sky
71,Tuatapere,NZ,-46.1333,167.6833,42.1,84,13,4.0,few clouds
72,Sinjar,IQ,36.3209,41.8754,85.59,15,0,6.24,clear sky
73,Ushuaia,AR,-54.8,-68.3,35.26,93,100,21.85,light rain
74,Danilov,RU,58.1908,40.1717,60.03,83,43,4.68,scattered clouds
75,Dese,ET,11.1333,39.6333,59.67,77,67,2.77,light rain
76,Chuy,UY,-33.6971,-53.4616,54.43,98,92,4.88,overcast clouds
77,Saint George,US,37.1041,-113.5841,110.62,12,0,17.27,clear sky
78,Maceio,BR,-9.6658,-35.7353,74.64,94,100,5.75,overcast clouds
79,Barrow,US,71.2906,-156.7887,42.82,81,100,11.5,overcast clouds
80,Port Alfred,ZA,-33.5906,26.891,62.31,67,100,10.89,overcast clouds
81,Bluff,NZ,-46.6,168.3333,36.81,81,8,6.33,clear sky
82,Jamestown,US,42.097,-79.2353,82.04,47,0,13.8,clear sky
83,Kondinskoye,RU,59.6481,67.41,48.34,71,44,7.09,scattered clouds
84,Fortuna,US,40.5982,-124.1573,69.93,69,6,3.0,clear sky
85,Poum,NC,-20.2333,164.0167,76.57,84,98,20.45,overcast clouds
86,Kodiak,US,57.79,-152.4072,54.91,71,100,11.5,overcast clouds
87,Nikolskoye,RU,59.7035,30.7861,69.69,79,16,5.64,few clouds
88,Lavrentiya,RU,65.5833,-171.0,44.28,87,100,10.92,overcast clouds
89,Severo-Kurilsk,RU,50.6789,156.125,55.47,90,52,6.38,broken clouds
90,Hebi,CN,35.8992,114.1925,69.64,88,10,8.7,clear sky
91,Aviles,ES,43.5547,-5.9248,65.77,80,75,2.3,broken clouds
92,Manacor,ES,39.5696,3.2096,79.52,69,6,3.78,clear sky
93,Tasiilaq,GL,65.6145,-37.6368,37.56,73,34,7.94,scattered clouds
94,Leshukonskoye,RU,64.8989,45.7622,66.67,75,79,8.14,broken clouds
95,Clyde River,CA,70.4692,-68.5914,57.43,62,75,14.97,broken clouds
96,Puerto Escondido,MX,15.85,-97.0667,85.03,61,75,8.05,broken clouds
97,Katsuura,JP,35.1333,140.3,80.02,78,0,19.28,clear sky
98,Half Moon Bay,US,37.4636,-122.4286,91.89,76,0,19.57,haze
99,Souillac,MU,-20.5167,57.5167,66.58,100,75,10.36,light rain
100,Erenhot,CN,43.6475,111.9767,70.03,32,84,14.76,broken clouds
101,Coihaique,CL,-45.5752,-72.0662,24.75,86,40,4.61,scattered clouds
102,Klyuchevskiy,RU,53.5317,119.4519,68.09,73,38,4.45,scattered clouds
103,Carutapera,BR,-1.195,-46.02,77.36,86,55,6.51,broken clouds
104,Bud,US,39.447,-86.1758,91.89,53,33,2.26,scattered clouds
105,Kahului,US,20.8947,-156.47,87.82,60,20,21.85,few clouds
106,Longyearbyen,SJ,78.2186,15.6401,48.04,87,75,4.61,broken clouds
107,Ende,ID,-8.8432,121.6623,73.2,83,87,2.19,overcast clouds
108,Shvartsevskiy,RU,54.0961,37.9917,61.9,92,21,7.45,few clouds
109,Yulara,AU,-25.2406,130.9889,55.94,35,7,7.25,clear sky
110,Praxedis Guerrero,MX,31.3667,-106.0167,99.86,33,35,28.88,scattered clouds
111,Castro,BR,-24.7911,-50.0119,59.0,71,81,2.19,broken clouds
112,Ginir,ET,7.1333,40.7,58.32,70,90,8.41,overcast clouds
113,Santa Cruz,BO,-17.8,-63.1667,80.65,54,20,16.11,few clouds
114,Gat,IL,31.61,34.7642,77.68,100,1,1.61,clear sky
115,Port Elizabeth,ZA,-33.918,25.5701,58.32,80,0,9.22,clear sky
116,Arraial Do Cabo,BR,-22.9661,-42.0278,71.46,88,0,10.36,clear sky
117,Kijang,KR,35.2442,129.2139,76.73,84,25,5.12,scattered clouds
118,Tautira,PF,-17.7333,-149.15,75.83,78,19,8.52,few clouds
119,Port Keats,AU,-14.25,129.55,66.07,27,36,6.76,scattered clouds
120,Maniitsoq,GL,65.4167,-52.9,45.39,87,87,4.97,overcast clouds
121,Governador Valadares,BR,-18.8511,-41.9494,71.62,50,5,3.98,clear sky
122,Mehamn,NO,71.0357,27.8492,53.51,82,40,14.97,scattered clouds
123,Klaksvik,FO,62.2266,-6.589,50.92,84,100,7.49,overcast clouds
124,Bubaque,GW,11.2833,-15.8333,78.48,87,100,18.79,light rain
125,Thompson,CA,55.7435,-97.8558,59.16,77,100,6.91,overcast clouds
126,Gombong,ID,-7.6072,109.5142,73.76,90,100,3.2,overcast clouds
127,Homer,US,59.6425,-151.5483,57.07,68,0,14.97,clear sky
128,Coquimbo,CL,-29.9533,-71.3436,55.13,87,100,4.61,overcast clouds
129,Bakuriani,GE,41.7497,43.5325,49.87,99,100,2.53,overcast clouds
130,Saldanha,ZA,-33.0117,17.9442,53.65,89,100,8.86,light rain
131,Terra Santa,BR,-2.1042,-56.4869,78.44,75,61,1.19,broken clouds
132,Pimentel,PE,-6.8367,-79.9342,66.49,68,0,16.11,clear sky
133,Port-Gentil,GA,-0.7193,8.7815,75.16,83,75,10.36,broken clouds
134,Kavieng,PG,-2.5744,150.7967,82.6,76,28,10.49,light rain
135,Caravelas,BR,-17.7125,-39.2481,69.85,81,2,4.99,clear sky
136,Poya,NC,-21.35,165.15,77.65,82,93,7.11,overcast clouds
137,Carauari,BR,-4.8828,-66.8958,74.68,95,85,2.28,overcast clouds
138,Rio Gallegos,AR,-51.6226,-69.2181,35.65,75,0,19.57,clear sky
139,Bengkulu,ID,-3.8004,102.2655,75.02,87,80,4.36,broken clouds
140,Guaiba,BR,-30.1139,-51.325,70.57,90,100,5.75,light rain
141,Togur,RU,58.3631,82.8265,49.51,92,77,12.53,broken clouds
142,Talnakh,RU,69.4865,88.3972,65.21,52,50,3.87,scattered clouds
143,Vaini,TO,-21.2,-175.2,75.36,94,40,9.22,scattered clouds
144,Stromness,GB,58.965,-3.296,49.87,83,100,7.0,overcast clouds
145,Bella Union,UY,-30.2752,-57.6007,63.07,93,99,10.22,light rain
146,Catemaco,MX,18.4167,-95.1167,82.53,70,54,5.21,broken clouds
147,Basco,PH,20.4487,121.9702,85.12,74,35,8.34,scattered clouds
148,Geraldton,AU,-28.7667,114.6,52.21,87,75,14.97,broken clouds
149,Hasaki,JP,35.7333,140.8333,82.29,77,0,17.45,clear sky
150,Ferrol,ES,43.4832,-8.2369,64.27,82,0,10.2,clear sky
151,Quatre Cocos,MU,-20.2078,57.7625,66.31,79,17,13.69,few clouds
152,Ullapool,GB,57.8987,-5.1604,57.34,88,100,5.26,overcast clouds
153,Preobrazheniye,RU,42.9019,133.9064,63.25,93,99,6.71,overcast clouds
154,Mungwi,ZM,-10.1732,31.3694,53.6,73,26,3.78,scattered clouds
155,Norman Wells,CA,65.282,-126.8329,77.04,36,75,11.5,broken clouds
156,Qaanaaq,GL,77.484,-69.3632,37.9,94,100,7.99,light rain
157,Komsomolskiy,UZ,40.4272,71.7189,79.52,38,0,4.61,clear sky
158,College,US,64.8569,-147.8028,62.08,64,75,9.22,broken clouds
159,Cabo San Lucas,MX,22.8909,-109.9124,98.91,34,0,11.5,clear sky
160,Houston,US,29.7633,-95.3633,90.95,69,20,11.5,few clouds
161,Hobyo,SO,5.3505,48.5268,75.43,82,37,22.66,scattered clouds
162,Kaitangata,NZ,-46.2817,169.8464,40.3,86,13,2.84,few clouds
163,Pakxan,LA,18.3778,103.6601,73.11,97,100,1.86,overcast clouds
164,Dwarka,IN,22.2394,68.9678,81.77,83,79,21.03,broken clouds
165,Nantucket,US,41.2835,-70.0995,84.34,66,0,9.22,clear sky
166,Emborion,GR,40.4833,21.55,71.29,53,0,1.21,clear sky
167,Oudtshoorn,ZA,-33.5907,22.2014,48.56,65,100,1.43,overcast clouds
168,Puerto Baquerizo Moreno,EC,-0.9,-89.6,74.39,69,40,8.05,scattered clouds
169,Benghazi,LY,32.1167,20.0667,78.91,77,0,11.9,clear sky
170,Itambe,BR,-15.245,-40.6244,68.92,68,43,2.82,scattered clouds
171,Agnibilekrou,CI,7.1344,-3.2047,70.88,86,67,3.04,broken clouds
172,Yar-Sale,RU,66.8333,70.8333,44.65,95,100,14.41,overcast clouds
173,Dongying,CN,37.4564,118.4856,70.75,89,100,4.7,overcast clouds
174,Cape Town,ZA,-33.9258,18.4232,56.1,91,75,6.91,light rain
175,Atuona,PF,-9.8,-139.0333,77.7,77,11,14.9,few clouds
176,Makaha,US,21.4694,-158.2175,85.91,57,75,14.97,broken clouds
177,Comodoro Rivadavia,AR,-45.8667,-67.5,37.26,48,0,9.22,clear sky
178,Phuntsholing,BT,26.8516,89.3884,77.77,85,100,4.47,overcast clouds
179,San Patricio,US,28.017,-97.5169,95.72,46,2,16.64,clear sky
180,Avarua,CK,-21.2078,-159.775,78.85,78,80,5.75,broken clouds
181,Atambua,ID,-9.1061,124.8925,67.26,80,95,5.39,overcast clouds
182,Bilma,NE,18.6853,12.9164,94.78,23,75,4.23,broken clouds
183,Koumac,NC,-20.5667,164.2833,77.9,80,100,14.58,overcast clouds
184,Korla,CN,41.7597,86.1469,78.58,25,0,4.07,clear sky
185,Oranjemund,NA,-28.55,16.4333,54.1,93,87,7.67,overcast clouds
186,Bilibino,RU,68.0546,166.4372,45.21,57,25,6.22,scattered clouds
187,Mar Del Plata,AR,-38.0023,-57.5575,49.08,88,68,4.61,mist
188,Nogliki,RU,51.8333,143.1667,57.79,80,100,7.43,overcast clouds
189,Majene,ID,-3.5403,118.9707,77.43,88,68,11.07,broken clouds
190,Rocha,UY,-34.4833,-54.3333,51.4,97,32,3.91,scattered clouds
191,Sohagpur,IN,22.7,78.2,74.66,98,100,5.28,light rain
192,Khatanga,RU,71.9667,102.5,41.81,89,100,15.19,light rain
193,Ankazobe,MG,-18.3167,47.1167,48.61,95,17,6.22,few clouds
194,Kroya,ID,-7.6331,109.2461,74.64,88,100,5.53,overcast clouds
195,Ilo,PE,-17.6394,-71.3375,59.38,83,46,3.11,scattered clouds
196,Boa Vista,BR,2.8197,-60.6733,84.18,65,20,5.75,few clouds
197,Luderitz,NA,-26.6481,15.1594,58.12,68,49,15.12,scattered clouds
198,San Juan,AR,-31.5375,-68.5364,59.11,29,10,4.05,clear sky
199,Palmer,US,42.1584,-72.3287,91.0,47,20,12.66,few clouds
200,Nagua,DO,19.3832,-69.8474,80.65,89,75,17.27,broken clouds
201,Dera Bugti,PK,29.0307,69.151,80.38,80,94,3.51,light rain
202,Avera,US,33.194,-82.5271,89.11,59,100,5.03,overcast clouds
203,Ixtapa,MX,20.7,-105.2,92.23,58,59,1.99,broken clouds
204,Qaqortoq,GL,60.7167,-46.0333,47.35,82,42,6.08,scattered clouds
205,Omboue,GA,-1.5746,9.2618,70.48,83,63,8.01,broken clouds
206,Faya,SA,18.3851,42.4509,68.52,46,93,4.16,overcast clouds
207,Edd,ER,13.9297,41.6925,91.27,59,97,2.89,overcast clouds
208,Marsa Matruh,EG,31.3525,27.2453,77.2,83,0,6.91,clear sky
209,Mandera,KE,3.9366,41.867,75.97,60,51,18.88,broken clouds
210,Upernavik,GL,72.7868,-56.1549,42.6,94,100,19.42,overcast clouds
211,Scarborough,GB,54.2797,-0.4044,56.79,86,100,1.99,overcast clouds
212,Awbari,LY,26.5921,12.7805,80.62,20,0,7.16,clear sky
213,Circleville,US,39.6006,-82.946,88.65,40,0,4.61,clear sky
214,Medea,DZ,36.2642,2.7539,73.56,48,0,1.19,clear sky
215,Kropotkin,RU,45.4375,40.5756,64.09,79,8,13.24,clear sky
216,Upata,VE,8.0086,-62.3989,82.18,80,35,5.26,scattered clouds
217,Nanortalik,GL,60.1432,-45.2371,46.65,84,23,4.07,few clouds
218,Szentmartonkata,HU,47.4542,19.7014,75.54,42,37,6.91,scattered clouds
219,Luang Prabang,LA,19.8856,102.1347,72.5,100,99,1.25,overcast clouds
220,Riyadh,SA,24.6877,46.7219,91.54,18,24,6.22,few clouds
221,Port Hardy,CA,50.6996,-127.4199,64.58,68,75,12.66,broken clouds
222,Vila Franca Do Campo,PT,37.7167,-25.4333,74.19,81,78,1.52,broken clouds
223,Lorengau,PG,-2.0226,147.2712,82.89,78,33,10.38,scattered clouds
224,Burns Lake,CA,54.2331,-125.7533,72.82,32,19,5.57,few clouds
225,Butembo,CD,0.15,29.2833,58.06,84,98,2.8,overcast clouds
226,Cidreira,BR,-30.1811,-50.2056,62.94,94,98,5.66,overcast clouds
227,Kyaikto,MM,17.3,97.0167,76.33,91,100,5.82,overcast clouds
228,Mogadishu,SO,2.0371,45.3438,75.7,82,32,17.36,scattered clouds
229,Luwuk,ID,-0.9516,122.7875,77.07,89,58,4.85,broken clouds
230,North Bend,US,43.4065,-124.2243,76.24,81,0,19.57,clear sky
231,Lucapa,AO,-8.4192,20.7447,69.89,34,27,3.04,scattered clouds
232,Jorochito,BO,-18.05,-63.4333,79.12,71,0,6.89,clear sky
233,Mildura,AU,-34.2,142.15,54.07,80,100,9.75,light rain
234,Kishtwar,IN,33.3167,75.7667,69.35,98,100,1.21,overcast clouds
235,Sorland,NO,67.667,12.6934,49.86,88,100,20.04,overcast clouds
236,Ancud,CL,-41.8697,-73.8203,40.23,97,100,18.43,moderate rain
237,Dikson,RU,73.5069,80.5464,51.62,78,88,14.0,overcast clouds
238,Shihezi,CN,44.3,86.0333,77.85,23,0,1.97,clear sky
239,Naze,JP,28.3667,129.4833,79.72,74,28,7.23,scattered clouds
240,Olafsvik,IS,64.8945,-23.7142,53.78,80,31,4.16,scattered clouds
241,Victoria,HK,22.2855,114.1577,87.33,85,44,4.0,scattered clouds
242,Chernyshevskiy,RU,63.0128,112.4714,64.99,70,100,3.13,overcast clouds
243,Tairua,NZ,-37.0167,175.85,54.21,67,100,8.1,overcast clouds
244,Mareeba,AU,-17.0,145.4333,67.48,80,7,2.77,clear sky
245,Nabire,ID,-3.3667,135.4833,77.77,87,57,2.1,broken clouds
246,Khasan,RU,42.4308,130.6434,65.44,96,100,5.55,overcast clouds
247,Ola,RU,59.5833,151.2833,71.15,65,43,1.66,scattered clouds
248,Kasungu,MW,-13.0333,33.4833,56.44,72,4,4.32,clear sky
249,Waipawa,NZ,-41.4122,175.5153,45.23,72,100,3.91,overcast clouds
250,Alirajpur,IN,22.3031,74.3546,75.65,90,100,12.37,moderate rain
251,Marawi,PH,7.9986,124.2928,72.0,90,96,1.92,overcast clouds
252,Paranaiba,BR,-19.6772,-51.1908,75.0,33,10,5.3,clear sky
253,Bandarbeyla,SO,9.4942,50.8122,77.13,78,37,29.64,scattered clouds
254,Nome,US,64.5011,-165.4064,50.16,93,100,13.8,overcast clouds
255,Cockburn Town,TC,21.4612,-71.1419,82.04,79,100,18.79,overcast clouds
256,Erzin,TR,36.9559,36.2,75.29,57,0,1.81,clear sky
257,Lumphat,KH,13.4878,106.9816,72.39,98,99,2.19,overcast clouds
258,Tabuk,PH,17.4189,121.4443,77.9,85,7,2.13,clear sky
259,Dingzhou,CN,38.5131,114.9956,71.71,77,92,5.12,overcast clouds
260,Krasnoselkup,RU,65.7,82.4667,52.2,94,83,9.33,broken clouds
261,Airai,TL,-8.9266,125.4092,55.15,73,92,3.02,overcast clouds
262,Kangaba,ML,11.9333,-8.4167,73.87,92,86,3.89,overcast clouds
263,La Ronge,CA,55.1001,-105.2842,59.25,63,75,16.11,broken clouds
264,Chazuta,PE,-6.5742,-76.1367,92.25,73,29,2.89,scattered clouds
265,Ladwa,IN,29.9944,77.0444,81.36,77,100,7.18,overcast clouds
266,Port Hedland,AU,-20.3167,118.5667,66.25,100,40,6.91,scattered clouds
267,Hovd,MN,48.0056,91.6419,60.96,54,35,6.22,scattered clouds
268,Boca Do Acre,BR,-8.7522,-67.3978,78.15,68,70,3.18,broken clouds
269,Salinopolis,BR,-0.6136,-47.3561,78.93,83,83,9.78,broken clouds
270,Bama,NG,11.5221,13.6856,78.31,73,84,6.26,broken clouds
271,Fort Nelson,CA,58.8053,-122.7002,72.99,35,75,6.91,broken clouds
272,Kruisfontein,ZA,-34.0033,24.7314,49.89,79,100,6.31,overcast clouds
273,Abraveses,PT,40.6814,-7.921,61.21,72,3,2.1,clear sky
274,Bairiki,KI,1.3292,172.9752,78.8,94,75,1.14,light rain
275,Wamba,NG,8.9333,8.6,70.84,95,99,1.81,overcast clouds
276,Alice Springs,AU,-23.7,133.8833,45.95,53,1,2.3,clear sky
277,Chimbote,PE,-9.0853,-78.5783,62.85,83,6,9.75,clear sky
278,Methoni,GR,36.8197,21.7049,81.21,67,0,8.72,clear sky
279,Albemarle,US,35.3501,-80.2001,93.76,63,0,3.44,clear sky
280,Baykit,RU,61.67,96.37,61.29,89,99,2.55,overcast clouds
281,Sao Filipe,CV,14.8961,-24.4956,75.18,81,72,1.83,broken clouds
282,Yurgamysh,RU,55.3714,64.4656,58.37,88,67,6.8,broken clouds
283,Sambava,MG,-14.2667,50.1667,66.83,88,40,10.49,light rain
284,Sioux Lookout,CA,50.1001,-91.917,71.67,64,40,10.36,scattered clouds
285,Tefe,BR,-3.3542,-64.7114,82.51,78,75,0.0,thunderstorm
286,Bucerias,MX,20.75,-105.3333,92.98,58,45,11.48,scattered clouds
287,Partizanskoye,RU,55.5006,94.39,55.96,87,33,4.14,scattered clouds
288,Sao Joao Da Barra,BR,-21.6403,-41.0511,71.87,86,0,14.45,clear sky
289,Bambous Virieux,MU,-20.3428,57.7575,66.45,100,75,10.36,light rain
290,Vardo,NO,70.3705,31.1107,49.98,93,100,2.3,overcast clouds
291,Broken Hill,AU,-31.95,141.4333,56.14,67,99,8.86,overcast clouds
292,Eureka,US,40.8021,-124.1637,79.66,73,11,7.0,few clouds
293,Ponta Do Sol,PT,32.6667,-17.1,71.71,80,15,4.72,few clouds
294,Muisne,EC,0.6,-80.0333,73.42,81,96,9.98,overcast clouds
295,Carnarvon,AU,-24.8667,113.6333,61.65,67,6,9.53,clear sky
296,Nhulunbuy,AU,-12.2333,136.7667,66.81,88,69,3.44,broken clouds
297,Mount Isa,AU,-20.7333,139.5,53.37,50,0,0.0,clear sky
298,Chilca,PE,-12.5211,-76.7372,60.19,87,33,5.93,scattered clouds
299,Ladnun,IN,27.65,74.3833,82.63,76,98,3.85,overcast clouds
300,Tsiroanomandidy,MG,-18.7667,46.0333,55.9,75,39,2.15,scattered clouds
301,Camapua,BR,-19.5314,-54.0439,75.51,33,11,3.24,few clouds
302,Cayenne,GF,4.9333,-52.3333,83.08,1,20,2.3,few clouds
303,Baghdad,IQ,33.3406,44.4009,92.82,16,0,11.1,clear sky
304,Shimoda,JP,34.6667,138.95,79.65,76,0,17.47,clear sky
305,Goderich,CA,43.7501,-81.7165,82.9,44,0,8.05,clear sky
306,Nong Khai,TH,17.9167,103.0833,77.29,98,100,5.14,overcast clouds
307,Chifeng,CN,42.2683,118.9636,67.87,80,100,8.23,light rain
308,Aklavik,CA,68.2191,-135.0107,68.0,68,75,8.05,shower rain
309,Novikovo,RU,51.1537,37.8879,56.08,95,38,8.05,scattered clouds
310,Port Moresby,PG,-9.4431,147.1797,78.55,81,82,3.0,broken clouds
311,Esperance,AU,-33.8667,121.9,55.56,67,62,16.49,broken clouds
312,Laguna,US,38.421,-121.4238,103.75,17,0,13.8,clear sky
313,Karratha,AU,-20.7377,116.8463,67.71,60,0,8.55,clear sky
314,Pathardih,IN,23.6667,86.4333,80.08,88,100,6.62,overcast clouds
315,Emba,KZ,48.8264,58.1442,72.39,50,56,3.74,broken clouds
316,Coffs Harbour,AU,-30.3,153.1333,55.36,94,75,12.66,broken clouds
317,Sadat,IN,25.6833,83.2833,84.11,75,100,11.86,overcast clouds
318,Constitucion,CL,-35.3333,-72.4167,53.67,93,30,8.16,scattered clouds
319,Lerwick,GB,60.1545,-1.1494,50.0,75,100,9.33,overcast clouds
320,Kabinda,CD,-6.1333,24.4833,73.53,38,88,4.16,overcast clouds
321,Bahar,IR,34.9072,48.4414,66.36,24,0,6.91,clear sky
322,Tuntum,BR,-5.2581,-44.6489,81.37,42,91,2.01,overcast clouds
323,Tilichiki,RU,60.4667,166.1,59.72,51,8,1.36,clear sky
324,Grong,NO,64.4654,12.3149,48.06,85,84,3.53,broken clouds
325,Ambilobe,MG,-13.2,49.05,62.91,81,0,3.85,clear sky
326,Garowe,SO,8.4054,48.4845,75.0,69,48,25.01,scattered clouds
327,Sumkino,RU,58.1108,68.3244,50.45,93,22,5.21,few clouds
328,Constantine,DZ,36.365,6.6147,81.81,34,40,4.61,scattered clouds
329,Nizhniy Kuranakh,RU,58.8353,125.4869,75.79,66,99,2.48,overcast clouds
330,Formosa,AR,-26.1775,-58.1781,76.98,65,100,4.61,overcast clouds
331,Ajaccio,FR,42.0,8.9167,73.45,73,0,6.91,clear sky
332,Palauig,PH,15.435,119.9045,82.72,75,24,2.95,few clouds
333,Puerto Del Rosario,ES,28.5004,-13.8627,73.15,88,20,13.8,few clouds
334,Troitsko-Pechorsk,RU,62.7084,56.1964,44.67,85,44,1.57,scattered clouds
335,Miri,MY,4.4148,114.0089,73.54,100,20,3.44,few clouds
336,Boyolangu,ID,-8.1181,111.8935,72.01,91,59,3.83,broken clouds
337,Komsomolets,KZ,53.7453,62.0708,57.88,85,2,6.33,clear sky
338,Uzhur,RU,55.3036,89.8339,54.0,91,99,5.82,overcast clouds
339,Tavistock,GB,50.5494,-4.1442,59.67,85,49,3.02,scattered clouds
340,Igarka,RU,67.4667,86.5833,61.36,72,49,10.96,scattered clouds
341,Ketchikan,US,55.3422,-131.6461,64.87,68,75,10.36,broken clouds
342,Redlands,US,34.0556,-117.1825,105.53,27,0,4.61,haze
343,Pisco,PE,-13.7,-76.2167,60.85,82,75,5.75,mist
344,Morant Bay,JM,17.8815,-76.4093,87.42,77,8,11.63,clear sky
345,Cullera,ES,39.1667,-0.25,82.65,80,9,4.0,clear sky
346,Uusikaupunki,FI,60.8004,21.4084,61.29,95,94,7.56,overcast clouds
347,Hamilton,US,39.1834,-84.5333,93.99,48,0,8.05,haze
348,Namatanai,PG,-3.6667,152.4333,83.17,64,10,6.71,clear sky
349,Mountain Home,US,43.133,-115.6912,94.48,10,0,12.66,clear sky
350,Zhoucheng,CN,35.9122,116.3117,69.75,95,100,9.82,overcast clouds
351,Shirvan,AZ,39.9509,48.8994,77.45,63,6,3.2,clear sky
352,Vagur,FO,61.4732,-6.8119,50.43,84,100,8.79,overcast clouds
353,Isangel,VU,-19.55,169.2667,78.91,83,100,8.05,light rain
354,Stornoway,GB,58.2093,-6.3865,57.16,88,75,4.61,broken clouds
355,Port Lincoln,AU,-34.7333,135.8667,52.2,76,41,5.64,scattered clouds
356,Severnyy,RU,50.677,36.5532,57.24,94,0,6.71,clear sky
357,Kalabo,ZM,-14.97,22.6814,65.01,38,91,4.79,overcast clouds
358,Loandjili,CG,-4.7561,11.8578,68.52,88,72,3.76,broken clouds
359,Buala,SB,-8.145,159.5921,83.66,72,15,5.61,few clouds
360,Leua,SK,48.2156,18.6071,79.5,48,0,5.41,clear sky
361,Katy,US,29.7858,-95.8244,84.25,31,76,14.16,broken clouds
362,Ciudad Guayana,VE,8.3533,-62.6528,85.51,74,53,6.64,broken clouds
363,Beya,RU,53.0533,90.9139,53.31,92,77,5.1,broken clouds
364,Yumen,CN,40.2833,97.2,74.17,16,0,9.95,clear sky
365,Warrnambool,AU,-38.3833,142.4833,51.82,91,100,16.28,light rain
366,Rocky Mountain House,CA,52.3668,-114.9188,62.65,80,100,3.18,overcast clouds
367,Jinchang,CN,38.4953,102.1739,69.96,35,0,6.24,clear sky
368,Ballina,AU,-28.8667,153.5667,57.02,99,100,20.38,overcast clouds
369,Bayburt,TR,40.2589,40.2278,47.66,91,2,2.08,clear sky
370,Mount Gambier,AU,-37.8333,140.7667,51.31,98,100,8.9,overcast clouds
371,Yangambi,CD,0.8102,24.4336,70.9,88,100,3.51,overcast clouds
372,Amla,IN,21.9333,78.1167,70.66,98,100,8.55,overcast clouds
373,Wewak,PG,-3.5534,143.6268,80.37,84,26,4.99,scattered clouds
374,Caracollo,PE,-14.9165,-70.6603,49.55,21,1,3.2,clear sky
375,Bima,ID,-8.4667,118.7167,71.94,92,95,4.18,overcast clouds
376,Boguchany,RU,58.3814,97.4531,60.28,89,89,1.92,overcast clouds
377,La Palma,US,33.8464,-118.0467,98.92,59,40,9.22,scattered clouds
378,Dunkirk,FR,51.05,2.3667,61.09,88,79,10.67,broken clouds
379,Marsaxlokk,MT,35.8419,14.5431,79.41,83,0,3.44,clear sky
380,Kui Buri,TH,12.0828,99.8543,76.73,88,100,4.5,overcast clouds
381,Betsiamites,CA,48.9413,-68.646,77.4,81,92,5.35,overcast clouds
382,Hirara,JP,24.8,125.2833,84.47,84,20,9.22,few clouds
383,Terrace Bay,CA,48.7834,-87.1,55.76,78,76,4.54,broken clouds
384,Pafos,CY,34.7667,32.4167,74.98,46,0,5.75,clear sky
385,Autazes,BR,-3.5797,-59.1306,79.95,71,97,2.21,overcast clouds
386,Yeniseysk,RU,58.4497,92.1703,56.59,97,60,6.38,broken clouds
387,Berdigestyakh,RU,62.0989,126.6992,65.68,88,98,0.92,overcast clouds
388,Cortez,US,37.3489,-108.5859,97.56,14,0,4.61,clear sky
389,Abu Samrah,SY,35.3029,37.1841,74.97,52,0,7.11,clear sky
390,Praia,CV,14.9215,-23.5087,76.46,81,77,2.75,broken clouds
391,Leh,IN,34.1667,77.5833,68.11,25,98,5.57,overcast clouds
392,Hay River,CA,60.8156,-115.7999,67.98,64,75,8.05,broken clouds
393,Tiksi,RU,71.6872,128.8694,46.4,80,87,7.4,overcast clouds
394,Touros,BR,-5.1989,-35.4608,75.6,85,100,13.98,overcast clouds
395,Samarai,PG,-10.6167,150.6667,80.89,77,34,5.35,scattered clouds
396,Kichera,RU,55.9375,110.0997,71.53,76,84,9.55,broken clouds
397,Tokonou,GN,9.65,-9.7833,68.22,97,100,3.76,light rain
398,Batagay-Alyta,RU,67.8006,130.4114,65.93,65,100,7.76,overcast clouds
399,Dessalines,HT,19.2833,-72.5,73.15,89,54,10.54,broken clouds
400,Vestmannaeyjar,IS,63.4427,-20.2734,51.31,90,100,2.73,overcast clouds
401,Berlevag,NO,70.8578,29.0864,53.55,82,100,18.41,overcast clouds
402,Alofi,NU,-19.0595,-169.9187,76.89,83,80,4.61,broken clouds
403,Lethem,GY,3.3803,-59.7968,76.35,89,88,7.29,overcast clouds
404,Kemijarvi,FI,66.7131,27.4306,57.87,79,100,0.43,overcast clouds
405,Susanville,US,40.4163,-120.653,93.04,7,0,13.8,clear sky
406,Alekseyevsk,RU,57.8406,108.3492,63.88,94,100,3.4,overcast clouds
407,Anito,PH,12.4497,125.2886,81.41,83,100,0.4,overcast clouds
408,Codrington,AU,-38.2667,141.9667,51.04,94,100,11.16,light rain
409,Margate,GB,51.3813,1.3862,63.3,83,79,1.99,broken clouds
410,Saint-Pierre,RE,-21.3393,55.4781,69.91,74,20,14.97,few clouds
411,Berezna,UA,51.5716,31.7846,58.87,92,1,7.7,clear sky
412,Krasnyy Chikoy,RU,50.3643,108.7512,58.19,83,94,1.77,overcast clouds
413,Manavalakurichi,IN,8.1333,77.3,77.32,86,99,14.9,light rain
414,Portland,US,45.5234,-122.6762,80.56,51,40,8.05,scattered clouds
415,Labuhan,ID,-6.8844,112.2051,74.66,85,60,7.2,broken clouds
416,Simao,CN,22.7886,100.9748,63.45,98,77,2.3,broken clouds
417,Vao,NC,-22.6667,167.4833,74.55,88,89,24.7,moderate rain
418,Maiduguri,NG,11.8464,13.1603,79.43,71,82,7.74,broken clouds
419,San Carlos De Bariloche,AR,-41.1456,-71.3082,40.44,59,100,0.0,light rain and snow
420,Praia Da Vitoria,PT,38.7333,-27.0667,73.76,63,40,2.75,scattered clouds
421,Halifax,CA,44.6453,-63.5724,84.09,78,20,5.75,few clouds
422,Wuwei,CN,37.9281,102.6414,66.54,46,0,4.27,clear sky
423,Madison,US,34.7334,-86.5667,93.78,61,40,9.22,scattered clouds
424,Port Blair,IN,11.6667,92.75,77.04,100,100,2.3,mist
425,Bosaso,SO,11.2842,49.1816,88.56,43,46,23.42,scattered clouds
426,Hwange,ZW,-18.3693,26.5019,62.1,59,20,5.06,few clouds
427,Senneterre,CA,48.3835,-77.2328,70.54,65,77,7.7,moderate rain
428,Taltal,CL,-25.4,-70.4833,57.09,85,100,3.33,overcast clouds
429,Sur,OM,22.5667,59.5289,86.16,69,90,10.11,overcast clouds
430,Tobermory,CA,45.2501,-81.6665,68.97,72,3,11.63,clear sky
431,Namibe,AO,-15.1961,12.1522,62.65,82,4,3.96,clear sky
432,Khlung,TH,12.4547,102.2214,82.11,100,100,1.36,light rain
433,Krasnozerskoye,RU,53.9828,79.2374,52.93,92,24,6.91,few clouds
434,Kerema,PG,-7.9631,145.7785,79.59,81,43,1.72,scattered clouds
435,Sinnamary,GF,5.3833,-52.95,78.35,85,43,6.8,scattered clouds
436,Manacapuru,BR,-3.2997,-60.6206,80.22,77,73,3.4,broken clouds
437,Yuzhno-Kurilsk,RU,44.0306,145.8556,57.96,98,100,5.77,overcast clouds
438,Plettenberg Bay,ZA,-34.0527,23.3716,56.23,62,100,5.64,overcast clouds
439,Gondanglegi,ID,-7.7479,112.0132,72.05,88,34,9.95,scattered clouds
440,Tigil,RU,57.8,158.6667,66.56,40,0,4.27,clear sky
441,Batagay,RU,67.6333,134.6333,66.0,84,100,2.73,light rain
442,Saint-Augustin,CA,51.226,-58.6502,57.72,91,100,11.27,overcast clouds
443,San Andres,CO,12.5847,-81.7006,80.62,89,75,5.75,broken clouds
444,Tiznit,MA,29.5833,-9.5,84.65,34,25,1.41,scattered clouds
445,Kushiro,JP,42.975,144.3747,59.95,100,75,12.66,light intensity shower rain
446,San Policarpo,PH,12.1791,125.5072,81.19,81,100,1.92,overcast clouds
447,Santiago De Cao,PE,-7.9589,-79.2392,62.73,77,6,10.36,clear sky
448,Tychy,PL,50.1372,18.9664,71.1,58,0,2.35,clear sky
449,Los Llanos De Aridane,ES,28.6585,-17.9182,67.75,83,0,16.11,clear sky
450,Umtata,ZA,-31.5889,28.7844,50.56,66,30,0.0,scattered clouds
451,Patacamaya,BO,-17.2333,-67.9167,48.65,18,6,8.39,clear sky
452,Worland,US,44.0169,-107.9554,99.88,22,0,11.5,light rain
453,Dingle,PH,10.9995,122.6711,79.32,88,82,3.36,broken clouds
454,Farafangana,MG,-22.8167,47.8333,65.44,87,42,2.71,light rain
455,Jutai,BR,-5.1833,-68.9,74.52,97,89,1.16,moderate rain
456,Tucuman,AR,-26.8241,-65.2226,64.4,63,39,3.44,scattered clouds
457,Atikokan,CA,48.7555,-91.6216,74.3,45,36,9.98,scattered clouds
458,Ukiah,US,39.1502,-123.2078,99.45,20,0,8.01,clear sky
459,Eyl,SO,7.9803,49.8164,77.41,73,79,23.58,broken clouds
460,Novouzensk,RU,50.4592,48.1431,71.2,57,95,5.19,overcast clouds
461,Kavaratti,IN,10.5669,72.642,81.09,77,100,19.46,overcast clouds
462,Paamiut,GL,61.994,-49.6678,46.0,85,6,10.63,clear sky
463,Cabra,ES,37.4725,-4.4421,82.18,28,0,5.21,clear sky
464,Aripuana,BR,-9.1667,-60.6333,79.77,44,19,1.1,few clouds
465,Platanos,GR,37.6667,21.6167,79.09,52,0,3.38,clear sky
466,Vila Velha,BR,-20.3297,-40.2925,73.35,90,20,6.91,few clouds
467,Erfurt,DE,50.9833,11.0333,67.01,82,0,3.44,clear sky
468,San Isidro,PE,-12.1167,-77.05,65.01,73,100,9.22,overcast clouds
469,Newberry,US,34.2746,-81.6187,90.54,70,99,3.31,overcast clouds
470,Zapolyarnyy,RU,69.4154,30.8136,52.88,84,51,8.05,broken clouds
471,Torbay,CA,47.6666,-52.7314,77.77,53,75,10.36,broken clouds
472,Lagoa,PT,39.05,-27.9833,72.16,91,100,8.66,overcast clouds
473,Talara,PE,-4.5772,-81.2719,64.15,85,38,11.45,scattered clouds
474,Neuquen,AR,-38.9516,-68.0591,51.69,50,0,5.75,light rain
475,Ovalle,CL,-30.5983,-71.2003,60.64,79,1,3.15,clear sky
476,Birjand,IR,32.8663,59.2211,77.47,16,0,6.91,clear sky
477,Novaya Ladoga,RU,60.1025,32.3019,63.55,74,34,8.61,scattered clouds
478,Freetown,SL,8.484,-13.2299,76.93,86,99,8.32,light rain
479,Vigrestad,NO,58.5667,5.7,55.58,87,100,10.2,overcast clouds
480,Mutis,CO,6.2262,-77.4044,77.7,90,79,9.24,light rain
481,Vostok,RU,46.4856,135.8833,62.51,84,95,2.46,overcast clouds
482,Tempio Pausania,IT,40.8974,9.1035,72.52,58,0,3.2,clear sky
483,Davenda,RU,53.5556,119.317,69.51,73,37,4.45,scattered clouds
484,Belmonte,BR,-15.8631,-38.8828,71.78,83,29,8.55,scattered clouds
485,Catabola,AO,-12.15,17.2833,60.4,35,17,3.06,few clouds
486,Ulladulla,AU,-35.35,150.4667,55.04,85,81,5.77,broken clouds
487,Chowchilla,US,37.123,-120.2602,105.03,12,0,13.8,clear sky
488,Esso,RU,55.9333,158.7,63.81,55,46,5.61,scattered clouds
489,Malatya,TR,38.5,38.0,69.85,31,0,8.05,clear sky
490,Provideniya,RU,64.3833,-173.3,46.24,79,76,6.85,broken clouds
491,Beringovskiy,RU,63.05,179.3167,46.89,87,100,9.57,light rain
492,Gavrilov Posad,RU,56.5597,40.1175,62.46,76,21,5.03,few clouds
493,Ojinaga,MX,29.5667,-104.4167,103.57,43,75,6.91,broken clouds
494,Natchez,US,31.5604,-91.4032,88.02,58,75,0.0,broken clouds
495,Tabou,CI,4.423,-7.3528,75.15,72,85,8.48,overcast clouds
496,Zemio,CF,5.0314,25.1361,68.0,98,100,5.26,light rain
497,High Prairie,CA,55.4334,-116.4858,70.2,42,35,4.27,scattered clouds
498,Dalmau,IN,26.0667,81.0333,84.15,75,100,10.71,overcast clouds
499,Shubarshi,KZ,48.5872,57.1869,71.83,55,71,4.99,broken clouds
500,Ukhta,RU,63.5671,53.6835,51.26,52,50,4.81,scattered clouds
501,Zarubino,RU,42.63,131.0922,63.91,96,100,6.91,overcast clouds
502,Volnovakha,UA,47.601,37.4967,54.97,96,18,8.88,few clouds
503,Ponta Delgada,PT,37.7333,-25.6667,74.5,83,20,5.75,few clouds
504,Carballo,ES,43.213,-8.691,62.76,87,0,7.29,clear sky
505,Diffa,NE,13.3154,12.6113,85.19,58,87,5.97,overcast clouds
506,Tuy Hoa,VN,13.0833,109.3,76.24,88,99,2.95,overcast clouds
507,Nuuk,GL,64.1835,-51.7216,47.62,79,42,4.56,scattered clouds
508,Kupang,ID,-10.1667,123.5833,71.73,75,79,9.55,broken clouds
509,Chicama,PE,-7.8447,-79.1469,61.34,78,5,8.75,clear sky
510,Korcula,HR,42.9622,17.1369,79.68,67,0,3.78,clear sky
511,Contai,IN,21.7786,87.7536,81.7,83,95,4.74,overcast clouds
512,San Jeronimo,PE,-11.9472,-75.2829,53.82,56,19,6.6,few clouds
513,Sisimiut,GL,66.9395,-53.6735,47.44,80,100,2.95,overcast clouds
514,Karatu,TZ,-3.3333,35.6667,55.56,84,56,6.44,broken clouds
515,Narsaq,GL,60.9167,-46.05,50.34,74,42,4.56,scattered clouds
516,Channel-Port Aux Basques,CA,47.5702,-59.1367,62.15,99,99,11.54,overcast clouds
517,Longhua,CN,23.6137,114.1919,81.52,78,3,1.41,clear sky
518,Baruun-Urt,MN,46.6806,113.2792,64.36,56,100,7.52,overcast clouds
519,Bathsheba,BB,13.2167,-59.5167,83.01,85,20,13.8,few clouds
520,Khorinsk,RU,52.1657,109.7726,61.52,95,100,1.68,moderate rain
521,Padang,ID,-0.9492,100.3543,77.9,85,98,4.0,overcast clouds
522,Itarema,BR,-2.9248,-39.9167,79.36,78,79,15.52,broken clouds
523,Sao Mateus,BR,-18.7161,-39.8589,68.94,84,4,5.08,clear sky
524,Glenwood Springs,US,39.5505,-107.3248,94.06,29,100,4.61,overcast clouds
525,Tamworth,GB,52.634,-1.6959,62.92,90,82,1.99,broken clouds
526,Marsh Harbour,BS,26.5412,-77.0636,83.48,74,0,13.58,clear sky
527,Khorramshahr,IR,30.4397,48.1664,100.36,14,0,13.8,clear sky
528,Roald,NO,62.5833,6.1333,57.33,87,75,19.57,broken clouds
529,Barranca,PE,-10.75,-77.7667,61.9,81,28,8.46,scattered clouds
530,Watertown,US,42.3709,-71.1828,93.06,38,20,13.8,few clouds
531,Chapais,CA,49.7834,-74.8492,74.98,55,62,11.03,broken clouds
532,Islamkot,PK,24.6997,70.177,83.28,82,100,18.63,overcast clouds
533,Volgodonsk,RU,47.5136,42.1514,61.61,84,73,6.02,light rain
534,Merrill,US,45.1805,-89.6835,86.11,45,75,10.36,broken clouds
535,Manono,CD,-7.3,27.4167,77.97,34,65,3.13,broken clouds
536,Kralendijk,BQ,12.15,-68.2667,81.48,81,52,20.29,broken clouds
537,Waingapu,ID,-9.6567,120.2641,72.19,76,83,8.12,broken clouds
538,Balaipungut,ID,1.05,101.2833,73.08,98,95,2.08,overcast clouds
539,Hokitika,NZ,-42.7167,170.9667,47.3,72,100,6.42,overcast clouds
540,Penzance,GB,50.1186,-5.5371,59.68,79,45,9.89,scattered clouds
541,Astana,KZ,51.1801,71.446,60.75,67,0,2.24,clear sky
542,Gorontalo,ID,0.5412,123.0595,76.89,88,9,3.06,clear sky
543,Sola,VU,-13.8833,167.55,80.78,77,43,14.81,scattered clouds
544,Pozo Colorado,PY,-23.4923,-58.7972,78.04,36,93,5.68,overcast clouds
545,Asosa,ET,10.0667,34.5333,60.51,92,100,2.71,light rain
546,Biltine,TD,14.5333,20.9167,78.6,63,68,5.73,broken clouds
547,The Valley,AI,18.217,-63.0578,82.81,69,40,13.8,scattered clouds
548,Guerrero Negro,MX,27.9769,-114.0611,75.09,60,21,21.43,few clouds
549,Orel-Izumrud,RU,43.4583,39.9244,64.42,93,100,7.0,overcast clouds
550,Shaunavon,CA,49.6501,-108.4181,73.18,41,87,16.15,overcast clouds
551,Waspan,NI,14.7419,-83.9717,76.39,94,100,4.52,overcast clouds
552,Bridgetown,BB,13.1,-59.6167,82.89,65,20,13.8,few clouds
553,Kihei,US,20.785,-156.4656,84.97,81,7,5.77,clear sky
554,Thiruvananthapuram,IN,8.4833,76.9167,78.78,89,40,4.61,mist
555,Coahuayana,MX,18.7333,-103.6833,86.25,73,95,7.25,overcast clouds
556,Muhoroni,KE,-0.1541,35.1988,61.7,89,79,2.95,broken clouds
557,Hailar,CN,49.2,119.7,70.43,70,31,7.76,scattered clouds
558,Nambucca Heads,AU,-30.65,153.0,59.0,80,73,10.92,broken clouds
559,Cherskiy,RU,68.75,161.3,48.96,53,14,4.18,few clouds
560,The Hammocks,US,25.6715,-80.4445,88.02,75,94,7.0,overcast clouds
561,Urucara,BR,-2.5364,-57.76,77.14,82,88,0.25,light rain
562,Nouadhibou,MR,20.931,-17.0347,76.98,88,38,4.61,scattered clouds
563,Helong,CN,42.5397,128.9972,66.27,97,72,2.57,broken clouds
564,Mackenzie,CA,55.2999,-123.1698,75.42,35,0,5.75,clear sky
565,Santa Pola,ES,38.1917,-0.5658,82.31,86,0,0.0,clear sky
566,Sabang,ID,5.8933,95.3214,81.3,74,100,3.94,light rain
567,Najran,SA,17.4924,44.1277,88.45,43,100,6.53,overcast clouds
568,El Penon,CO,8.9892,-73.9486,78.6,93,99,3.65,overcast clouds
569,Wakkanai,JP,45.4094,141.6739,61.29,90,100,20.78,overcast clouds
570,Morondava,MG,-20.2833,44.2833,67.89,70,5,2.24,clear sky
571,Pacific Grove,US,36.6177,-121.9166,84.54,77,0,11.5,clear sky
572,Raga,SS,8.4596,25.678,68.56,98,92,4.0,overcast clouds
573,Aswan,EG,24.0934,32.907,88.9,13,0,10.36,clear sky
574,Lensk,RU,60.7253,114.9278,65.88,82,92,3.09,overcast clouds
575,Lincoln,US,40.8,-96.667,93.27,100,52,1.99,broken clouds
576,Maragogi,BR,-9.0122,-35.2225,74.39,86,100,8.14,overcast clouds
577,Mitsamiouli,KM,-11.3847,43.2844,75.15,75,0,5.21,clear sky
578,Vaitape,PF,-16.5167,-151.75,78.19,73,20,9.53,few clouds
579,Savannah Bight,HN,16.45,-85.85,81.95,81,100,16.55,overcast clouds
580,Benito Juarez,MX,19.385,-99.165,76.82,27,75,18.41,broken clouds
581,Chute-Aux-Outardes,CA,49.1168,-68.399,73.38,60,0,14.97,clear sky
582,Mandalgovi,MN,45.7625,106.2708,60.35,50,25,7.58,scattered clouds
583,Ust-Maya,RU,60.4167,134.5333,72.25,65,100,1.1,overcast clouds
584,Inirida,CO,3.8653,-67.9239,74.91,96,98,2.66,overcast clouds
585,Odweyne,SO,9.4092,45.064,69.73,60,6,19.6,clear sky
586,Challans,FR,46.8436,-1.8749,61.72,61,9,11.12,clear sky
587,Thinadhoo,MV,0.5333,72.9333,79.61,79,100,8.34,light rain
588,Atar,MR,20.5169,-13.0499,87.03,52,92,3.67,moderate rain
589,Katherine,AU,-14.4667,132.2667,55.72,44,4,5.75,clear sky
590,Manaure,CO,11.7751,-72.4445,86.18,57,51,20.2,broken clouds
591,Berea,US,41.3662,-81.8543,86.85,60,25,1.99,scattered clouds
592,Santa Ana,US,33.7456,-117.8678,98.96,53,40,9.22,scattered clouds
593,Igrim,RU,63.1906,64.4162,43.56,87,67,4.76,broken clouds
594,Soubre,CI,5.7856,-6.6083,68.86,89,90,2.51,overcast clouds
595,Cancun,MX,21.1743,-86.8466,87.06,70,33,8.41,scattered clouds
596,Beira,MZ,-19.8436,34.8389,68.09,93,20,5.99,few clouds
597,Marietta,US,33.9526,-84.5499,89.46,69,75,5.75,broken clouds
598,Sardinata,CO,8.0829,-72.8007,83.88,86,93,0.22,overcast clouds
599,Kangaatsiaq,GL,68.3065,-53.4641,40.73,93,100,8.77,light rain
600,Methala,IN,10.2166,76.2166,77.0,93,100,1.92,overcast clouds
601,Cabedelo,BR,-6.9811,-34.8339,75.87,80,95,13.6,overcast clouds
602,Ridgecrest,US,35.6225,-117.6709,110.64,7,75,8.99,broken clouds
603,Polson,US,47.6936,-114.1632,67.78,57,38,17.9,scattered clouds
604,Jevargi,IN,17.0167,76.7667,74.03,91,100,8.3,moderate rain
605,Melendugno,IT,40.2747,18.3368,77.97,52,0,4.29,clear sky
606,Nong Kung Si,TH,16.65,103.3,79.83,99,100,3.36,overcast clouds
607,Oeiras,BR,-7.0253,-42.1311,83.16,41,100,8.48,overcast clouds
608,Taybad,IR,34.74,60.7756,85.84,18,0,16.46,clear sky
609,Tianpeng,CN,30.9866,103.9393,66.67,94,3,1.81,clear sky
610,Solhan,TR,38.9634,41.0293,63.5,52,0,5.39,clear sky
611,Kodinar,IN,20.7903,70.7031,79.88,84,97,14.85,overcast clouds
612,Kousseri,CM,12.0769,15.0306,81.81,66,99,6.4,overcast clouds
613,Pochutla,MX,15.7432,-96.4661,86.83,66,92,4.65,overcast clouds
614,Rambha,IN,19.5167,85.1,81.7,85,100,0.11,moderate rain
615,Kosonsoy,UZ,41.2561,71.5508,75.76,20,0,7.18,clear sky
616,Jackson,US,42.4165,-122.8345,92.16,20,0,8.01,clear sky
617,Whitianga,NZ,-36.8333,175.7,54.88,68,99,11.18,overcast clouds
618,Nerchinsk,RU,51.9833,116.5833,70.75,82,2,9.1,clear sky
619,Kuminskiy,RU,58.6667,66.5667,49.75,88,39,3.13,scattered clouds
620,Nanganga,TZ,-10.3833,39.15,64.24,95,4,4.09,clear sky
621,Broome,US,42.2506,-75.833,83.07,67,75,1.01,broken clouds
622,Sao Felix Do Xingu,BR,-6.6447,-51.995,76.87,41,8,1.66,clear sky
623,Colares,PT,38.7992,-9.4469,69.48,76,20,24.0,few clouds
624,Puerto Leguizamo,CO,-0.1934,-74.7819,77.02,80,84,1.05,broken clouds
625,Ust-Ordynskiy,RU,52.805,104.7508,55.98,94,99,4.27,overcast clouds
626,Zhezkazgan,KZ,47.8043,67.7144,70.88,33,28,8.08,scattered clouds
627,Kovilpatti,IN,9.1667,77.8667,80.49,70,100,6.55,light rain
628,Harper,LR,4.375,-7.7169,74.84,73,76,9.22,broken clouds
629,Zirgan,RU,53.2222,55.9185,58.5,77,79,2.59,broken clouds
630,San Cristobal,VE,7.7669,-72.225,77.18,82,61,3.27,broken clouds
631,Kudahuvadhoo,MV,2.6708,72.8944,82.27,75,98,15.55,overcast clouds
632,Nouakchott,MR,18.0858,-15.9785,77.16,85,33,8.81,scattered clouds
633,Saint-Joseph,RE,-21.3667,55.6167,68.38,81,21,12.91,light rain
634,Tukrah,LY,32.5341,20.5791,77.2,81,0,9.84,clear sky
635,Macusani,PE,-14.0833,-70.4333,39.94,77,19,6.55,few clouds
636,Ilulissat,GL,69.2167,-51.1,42.6,95,100,4.63,light rain
637,Dandong,CN,40.1292,124.3947,73.8,90,100,3.74,overcast clouds
638,Tura,IN,25.5198,90.2201,74.84,92,98,3.33,overcast clouds
639,Arawa,PG,-6.2132,155.5367,85.03,58,4,2.55,clear sky
640,Kieta,PG,-6.2167,155.6333,83.73,62,4,3.58,clear sky
641,High Rock,BS,26.6208,-78.2833,87.82,71,0,14.54,clear sky
642,Makakilo City,US,21.3469,-158.0858,82.69,66,0,15.84,clear sky
643,Deputatskiy,RU,69.3,139.9,53.78,47,96,9.57,overcast clouds
644,Bangassou,CF,4.7413,22.8184,67.96,99,100,2.26,light rain
645,Novorzhev,RU,57.0294,29.3338,61.43,75,12,4.74,few clouds
646,Quemado De Guines,CU,22.7853,-80.2536,85.86,63,29,14.38,scattered clouds
647,Christchurch,NZ,-43.5333,172.6333,45.41,87,100,4.61,overcast clouds
648,Lucea,JM,18.451,-78.1736,83.77,75,40,6.02,scattered clouds
649,Sulangan,PH,11.1373,123.7228,82.94,76,71,5.91,broken clouds
650,Turukhansk,RU,65.8167,87.9833,63.05,70,9,14.7,clear sky
651,Graaff-Reinet,ZA,-32.2522,24.5308,62.92,38,100,10.09,overcast clouds
652,Tomatlan,MX,19.9333,-105.25,86.97,69,91,10.56,overcast clouds
653,Melfi,IT,40.9965,15.6514,70.48,71,0,6.96,clear sky
654,Washington,US,47.5001,-120.5015,89.92,25,0,10.96,clear sky
655,San Jose,US,37.3394,-121.895,92.7,45,20,13.8,few clouds
656,Xiaoweizhai,CN,26.1903,107.5125,70.32,98,24,3.24,few clouds
657,Antropovo,RU,58.3988,43.0066,59.68,88,68,5.5,broken clouds
658,Jinka,ET,5.65,36.65,63.41,63,34,5.82,scattered clouds
659,Gornyy,RU,55.1153,83.9059,52.59,98,86,8.81,overcast clouds
660,Lebedyn,UA,50.5852,34.4849,57.47,97,2,8.77,clear sky
661,Fandriana,MG,-20.2333,47.3833,47.08,95,67,1.32,broken clouds
662,Cassilandia,BR,-19.1133,-51.7342,71.83,38,3,4.88,clear sky
663,Sovetskiy,RU,61.3614,63.5842,46.11,73,67,4.36,broken clouds
664,Isla Vista,US,34.4133,-119.861,86.25,64,0,8.05,clear sky
665,Mezen,RU,65.8522,44.24,53.92,97,92,9.31,overcast clouds
666,Port Arthur,CN,38.8,121.2667,77.22,85,100,12.55,overcast clouds
667,Yanam,IN,16.7333,82.2167,77.7,88,100,7.07,overcast clouds
668,Santa Maria Da Boa Vista,BR,-8.8078,-39.8256,80.85,38,86,15.17,overcast clouds
669,Batemans Bay,AU,-35.7167,150.1833,52.11,83,82,4.09,light rain
670,Imeni Poliny Osipenko,RU,52.4201,136.4853,62.24,74,98,7.83,overcast clouds
671,Doha,QA,25.2867,51.5333,93.18,79,62,2.3,broken clouds
672,San Matias,BO,-16.3667,-58.4,80.08,31,6,3.96,clear sky
673,Aksu,CN,41.1231,80.2644,78.55,24,0,1.28,clear sky
674,Voh,NC,-20.9667,164.7,79.36,75,98,6.82,light rain
675,Kholm,RU,59.2667,32.85,61.11,76,54,5.3,broken clouds
676,Rawson,AR,-43.3002,-65.1023,41.22,35,98,4.0,overcast clouds
677,Amudat,UG,1.95,34.95,69.19,57,51,4.41,broken clouds
678,Chepareria,KE,1.3077,35.2039,62.67,82,96,0.87,light rain
679,Copiapo,CL,-27.3667,-70.3333,61.79,65,83,2.28,broken clouds
680,Bokoro,TD,12.3807,17.0568,81.99,66,100,7.72,overcast clouds
681,Catamarca,AR,-28.4696,-65.7852,68.58,47,67,1.99,broken clouds
682,Kargil,IN,34.5667,76.1,64.22,51,100,4.76,overcast clouds
683,Genhe,CN,50.7833,121.5167,68.77,70,0,6.51,clear sky
684,Kardla,EE,58.9978,22.7492,65.05,96,100,6.87,overcast clouds
685,Grindavik,IS,63.8424,-22.4338,50.47,100,75,5.75,fog
686,Dhali,IN,10.5,77.1667,75.0,79,100,6.78,overcast clouds
687,Adrar,MR,20.5022,-10.0711,87.73,46,41,19.51,light rain
688,Asau,RO,46.4333,26.4,68.95,81,6,3.69,clear sky
689,Sabzevar,IR,36.2126,57.6819,84.29,21,0,4.83,clear sky
690,Hervey Bay,AU,-25.2986,152.8535,63.37,78,100,18.19,overcast clouds
691,Lata,PT,40.1629,-8.3327,57.85,92,4,0.6,clear sky
692,Mawlaik,MM,23.6333,94.4167,75.92,99,100,2.71,overcast clouds
693,Jalu,LY,29.0331,21.5482,77.68,56,0,14.92,clear sky
694,Olga,RU,43.7444,135.2892,63.93,82,100,9.66,overcast clouds
